[
  { "name": "New York",       "country": "United States",  "countryCode": "US", "lat": 40.7128,  "lng": -74.0060, "gdp_billion": 1900, "population_m": 8.3,  "startup_count": 9800,  "trade_volume_b": 340, "risk_score": 12 },
  { "name": "London",         "country": "United Kingdom", "countryCode": "GB", "lat": 51.5074,  "lng": -0.1278,  "gdp_billion": 820,  "population_m": 9.0,  "startup_count": 6200,  "trade_volume_b": 210, "risk_score": 15 },
  { "name": "Tokyo",          "country": "Japan",          "countryCode": "JP", "lat": 35.6762,  "lng": 139.6503, "gdp_billion": 1080, "population_m": 13.9, "startup_count": 3400,  "trade_volume_b": 280, "risk_score": 18 },
  { "name": "Shanghai",       "country": "China",          "countryCode": "CN", "lat": 31.2304,  "lng": 121.4737, "gdp_billion": 700,  "population_m": 24.9, "startup_count": 5100,  "trade_volume_b": 450, "risk_score": 42 },
  { "name": "Singapore",      "country": "Singapore",      "countryCode": "SG", "lat": 1.3521,   "lng": 103.8198, "gdp_billion": 466,  "population_m": 5.9,  "startup_count": 4200,  "trade_volume_b": 880, "risk_score": 8  },
  { "name": "São Paulo",      "country": "Brazil",         "countryCode": "BR", "lat": -23.5505, "lng": -46.6333, "gdp_billion": 430,  "population_m": 12.3, "startup_count": 2100,  "trade_volume_b": 120, "risk_score": 48 },
  { "name": "Mumbai",         "country": "India",          "countryCode": "IN", "lat": 19.0760,  "lng": 72.8777,  "gdp_billion": 310,  "population_m": 20.7, "startup_count": 4800,  "trade_volume_b": 130, "risk_score": 35 },
  { "name": "Dubai",          "country": "UAE",            "countryCode": "AE", "lat": 25.2048,  "lng": 55.2708,  "gdp_billion": 115,  "population_m": 3.5,  "startup_count": 2800,  "trade_volume_b": 540, "risk_score": 22 },
  { "name": "Berlin",         "country": "Germany",        "countryCode": "DE", "lat": 52.5200,  "lng": 13.4050,  "gdp_billion": 163,  "population_m": 3.6,  "startup_count": 3100,  "trade_volume_b": 95,  "risk_score": 10 },
  { "name": "Lagos",          "country": "Nigeria",        "countryCode": "NG", "lat": 6.5244,   "lng": 3.3792,   "gdp_billion": 90,   "population_m": 15.4, "startup_count": 980,   "trade_volume_b": 42,  "risk_score": 65 },
  { "name": "Nairobi",        "country": "Kenya",          "countryCode": "KE", "lat": -1.2921,  "lng": 36.8219,  "gdp_billion": 42,   "population_m": 4.9,  "startup_count": 640,   "trade_volume_b": 18,  "risk_score": 55 },
  { "name": "Seoul",          "country": "South Korea",    "countryCode": "KR", "lat": 37.5665,  "lng": 126.9780, "gdp_billion": 780,  "population_m": 9.7,  "startup_count": 3800,  "trade_volume_b": 290, "risk_score": 28 },
  { "name": "Sydney",         "country": "Australia",      "countryCode": "AU", "lat": -33.8688, "lng": 151.2093, "gdp_billion": 340,  "population_m": 5.3,  "startup_count": 2200,  "trade_volume_b": 180, "risk_score": 9  },
  { "name": "Toronto",        "country": "Canada",         "countryCode": "CA", "lat": 43.6532,  "lng": -79.3832, "gdp_billion": 320,  "population_m": 6.2,  "startup_count": 3400,  "trade_volume_b": 140, "risk_score": 11 },
  { "name": "Stockholm",      "country": "Sweden",         "countryCode": "SE", "lat": 59.3293,  "lng": 18.0686,  "gdp_billion": 125,  "population_m": 1.0,  "startup_count": 2100,  "trade_volume_b": 75,  "risk_score": 7  },
  { "name": "Amsterdam",      "country": "Netherlands",    "countryCode": "NL", "lat": 52.3676,  "lng": 4.9041,   "gdp_billion": 110,  "population_m": 0.9,  "startup_count": 1800,  "trade_volume_b": 290, "risk_score": 8  },
  { "name": "Shenzhen",       "country": "China",          "countryCode": "CN", "lat": 22.5431,  "lng": 114.0579, "gdp_billion": 480,  "population_m": 17.6, "startup_count": 6100,  "trade_volume_b": 390, "risk_score": 40 },
  { "name": "Bangalore",      "country": "India",          "countryCode": "IN", "lat": 12.9716,  "lng": 77.5946,  "gdp_billion": 110,  "population_m": 12.8, "startup_count": 7200,  "trade_volume_b": 60,  "risk_score": 30 },
  { "name": "Tel Aviv",       "country": "Israel",         "countryCode": "IL", "lat": 32.0853,  "lng": 34.7818,  "gdp_billion": 130,  "population_m": 4.2,  "startup_count": 3900,  "trade_volume_b": 55,  "risk_score": 55 },
  { "name": "Jakarta",        "country": "Indonesia",      "countryCode": "ID", "lat": -6.2088,  "lng": 106.8456, "gdp_billion": 180,  "population_m": 34.5, "startup_count": 1400,  "trade_volume_b": 85,  "risk_score": 44 },
  { "name": "Mexico City",    "country": "Mexico",         "countryCode": "MX", "lat": 19.4326,  "lng": -99.1332, "gdp_billion": 410,  "population_m": 21.7, "startup_count": 1800,  "trade_volume_b": 160, "risk_score": 52 },
  { "name": "Paris",          "country": "France",         "countryCode": "FR", "lat": 48.8566,  "lng": 2.3522,   "gdp_billion": 740,  "population_m": 2.1,  "startup_count": 3600,  "trade_volume_b": 200, "risk_score": 16 },
  { "name": "Zurich",         "country": "Switzerland",    "countryCode": "CH", "lat": 47.3769,  "lng": 8.5417,   "gdp_billion": 190,  "population_m": 0.4,  "startup_count": 1200,  "trade_volume_b": 95,  "risk_score": 5  },
  { "name": "Riyadh",         "country": "Saudi Arabia",   "countryCode": "SA", "lat": 24.7136,  "lng": 46.6753,  "gdp_billion": 340,  "population_m": 7.7,  "startup_count": 1100,  "trade_volume_b": 220, "risk_score": 45 },
  { "name": "Buenos Aires",   "country": "Argentina",      "countryCode": "AR", "lat": -34.6037, "lng": -58.3816, "gdp_billion": 140,  "population_m": 15.3, "startup_count": 890,   "trade_volume_b": 50,  "risk_score": 68 },
  { "name": "Cairo",          "country": "Egypt",          "countryCode": "EG", "lat": 30.0444,  "lng": 31.2357,  "gdp_billion": 100,  "population_m": 21.3, "startup_count": 520,   "trade_volume_b": 48,  "risk_score": 60 },
  { "name": "Karachi",        "country": "Pakistan",       "countryCode": "PK", "lat": 24.8607,  "lng": 67.0011,  "gdp_billion": 78,   "population_m": 16.1, "startup_count": 310,   "trade_volume_b": 30,  "risk_score": 72 },
  { "name": "Manila",         "country": "Philippines",    "countryCode": "PH", "lat": 14.5995,  "lng": 120.9842, "gdp_billion": 120,  "population_m": 13.9, "startup_count": 680,   "trade_volume_b": 65,  "risk_score": 50 },
  { "name": "Kuala Lumpur",   "country": "Malaysia",       "countryCode": "MY", "lat": 3.1390,   "lng": 101.6869, "gdp_billion": 140,  "population_m": 8.4,  "startup_count": 1100,  "trade_volume_b": 110, "risk_score": 32 }
]
